{
"type": "FeatureCollection",
"crs": { "type": "name", "properties": { "name": "urn:ogc:def:crs:OGC:1.3:CRS84" } },
"features": [
{ "type": "Feature", "properties": { "Name": "Puerta 1", "src":"assets/img/pabellon.png", "description": null, "timestamp": null, "begin": null, "end": null, "altitudeMode": null, "tessellate": -1, "extrude": 0, "visibility": -1, "drawOrder": null, "icon": null }, "geometry": { "type": "Point", "coordinates": [ -77.0500548, -12.0872817, 0.0 ] } },
{ "type": "Feature", "properties": { "Name": "Puerta 2", "src":"assets/img/pabellon.png", "description": null, "timestamp": null, "begin": null, "end": null, "altitudeMode": null, "tessellate": -1, "extrude": 0, "visibility": -1, "drawOrder": null, "icon": null }, "geometry": { "type": "Point", "coordinates": [ -77.0500776, -12.0881774, 0.0 ] } },
{ "type": "Feature", "properties": { "Name": "Pabellón A", "src":"assets/img/pabellon.png", "description": null, "timestamp": null, "begin": null, "end": null, "altitudeMode": null, "tessellate": -1, "extrude": 0, "visibility": -1, "drawOrder": null, "icon": null }, "geometry": { "type": "Point", "coordinates": [ -77.0500401, -12.0874378, 0.0 ] } },
{ "type": "Feature", "properties": { "Name": "Pabellón B", "src":"assets/img/pabellon.png", "description": null, "timestamp": null, "begin": null, "end": null, "altitudeMode": null, "tessellate": -1, "extrude": 0, "visibility": -1, "drawOrder": null, "icon": null }, "geometry": { "type": "Point", "coordinates": [ -77.0502748, -12.087784, 0.0 ] } },
{ "type": "Feature", "properties": { "Name": "Starbucks", "src":"assets/img/serv-cafeteria.png", "description": null, "timestamp": null, "begin": null, "end": null, "altitudeMode": null, "tessellate": -1, "extrude": 0, "visibility": -1, "drawOrder": null, "icon": null }, "geometry": { "type": "Point", "coordinates": [ -77.0502439, -12.0880082, 0.0 ] } },
{ "type": "Feature", "properties": { "Name": "Auditorio", "src":"assets/img/pabellon.png", "description": null, "timestamp": null, "begin": null, "end": null, "altitudeMode": null, "tessellate": -1, "extrude": 0, "visibility": -1, "drawOrder": null, "icon": null }, "geometry": { "type": "Point", "coordinates": [ -77.0498443, -12.0873525, 0.0 ] } },
{ "type": "Feature", "properties": { "Name": "Pabellón C", "src":"assets/img/pabellon.png", "description": null, "timestamp": null, "begin": null, "end": null, "altitudeMode": null, "tessellate": -1, "extrude": 0, "visibility": -1, "drawOrder": null, "icon": null }, "geometry": { "type": "Point", "coordinates": [ -77.0498537, -12.0869683, 0.0 ] } },
{ "type": "Feature", "properties": { "Name": "Parking 1", "src":"assets/img/reserva.png", "description": null, "timestamp": null, "begin": null, "end": null, "altitudeMode": null, "tessellate": -1, "extrude": 0, "visibility": -1, "drawOrder": null, "icon": null }, "geometry": { "type": "Point", "coordinates": [ -77.0500213, -12.0875925, 0.0 ] } },
{ "type": "Feature", "properties": { "Name": "Centro de Información","src":"assets/img/serv-ci.png",  "description": null, "timestamp": null, "begin": null, "end": null, "altitudeMode": null, "tessellate": -1, "extrude": 0, "visibility": -1, "drawOrder": null, "icon": null }, "geometry": { "type": "Point", "coordinates": [ -77.0503432, -12.0878679, 0.0 ] } },
{ "type": "Feature", "properties": { "Name": "Cafetería 1", "src":"assets/img/serv-cafeteria.png", "description": null, "timestamp": null, "begin": null, "end": null, "altitudeMode": null, "tessellate": -1, "extrude": 0, "visibility": -1, "drawOrder": null, "icon": null }, "geometry": { "type": "Point", "coordinates": [ -77.0499462, -12.0873643, 0.0 ] } }
]
}
